[
  {
    "location": "Paris",
    "temperature_celsius": -4,
    "is_raining": false,
    "humidity_percent": 32
  },
  {
    "type": "vegetable",
    "name": "Chicken",
    "calories_per_100g": 439,
    "is_organic": false
  },
  {
    "location": "Tokyo",
    "temperature_celsius": 25,
    "is_raining": true,
    "humidity_percent": 16
  },
  {
    "country": "France",
    "name": "French Republic",
    "flag_colours": "Red and white",
    "population_millions": 69
  },
  {
    "isbn": "97806493",
    "pages": 406,
    "in_stock": true
  },
  {
    "type": "protein",
    "name": "Salmon",
    "calories_per_100g": 447,
    "is_organic": false
  },
  {
    "country": "Brazil",
    "name": "Commonwealth of Australia",
    "flag_colours": "Red, white and blue",
    "population_millions": 57
  },
  {
    "id": 2760,
    "address": "69 Maple Lane",
    "postal_code": "D11 3B"
  },
  {
    "country": "Brazil",
    "name": "Federative Republic of Brazil",
    "flag_colours": "Red, white and blue",
    "population_millions": 40
  },
  {
    "isbn": "97865291",
    "pages": 141,
    "in_stock": false
  },
  {
    "id": 6986,
    "address": "7 Oak Road",
    "postal_code": "M16 0O"
  },
  {
    "isbn": "97887900",
    "pages": 495,
    "in_stock": false
  },
  {
    "isbn": "97862982",
    "pages": 417,
    "in_stock": true
  },
  {
    "isbn": "97883993",
    "pages": 739,
    "in_stock": false
  },
  {
    "country": "Canada",
    "name": "Federative Republic of Brazil",
    "flag_colours": "Blue, white and red",
    "population_millions": 101
  },
  {
    "id": 2573,
    "address": "75 Main Street",
    "postal_code": "N73 4K"
  },
  {
    "id": 3332,
    "address": "178 Main Street",
    "postal_code": "O30 5W"
  },
  {
    "country": "Brazil",
    "name": "Federative Republic of Brazil",
    "flag_colours": "Red, white and blue",
    "population_millions": 324
  },
  {
    "type": "grain",
    "name": "Banana",
    "calories_per_100g": 239,
    "is_organic": false
  },
  {
    "country": "France",
    "name": "Great Britain",
    "flag_colours": "Red, white and blue",
    "population_millions": 251
  },
  {
    "id": 7670,
    "address": "123 Maple Lane",
    "postal_code": "W61 8G"
  },
  {
    "country": "UK",
    "name": "Canada",
    "flag_colours": "Red and white",
    "population_millions": 185
  },
  {
    "id": 6741,
    "address": "41 Main Street",
    "postal_code": "W48 3T"
  },
  {
    "isbn": "97817300",
    "pages": 533,
    "in_stock": true
  },
  {
    "type": "grain",
    "name": "Banana",
    "calories_per_100g": 99,
    "is_organic": false
  },
  {
    "type": "fruit",
    "name": "Broccoli",
    "calories_per_100g": 61,
    "is_organic": true
  },
  {
    "location": "Sydney",
    "temperature_celsius": -5,
    "is_raining": true,
    "humidity_percent": 82
  },
  {
    "id": 7764,
    "address": "158 Main Street",
    "postal_code": "R21 8U"
  },
  {
    "country": "Canada",
    "name": "Japan",
    "flag_colours": "Red and white",
    "population_millions": 63
  },
  {
    "country": "USA",
    "name": "Federative Republic of Brazil",
    "flag_colours": "Red and white",
    "population_millions": 64
  },
  {
    "location": "New York",
    "temperature_celsius": 19,
    "is_raining": false,
    "humidity_percent": 56
  },
  {
    "location": "Tokyo",
    "temperature_celsius": -4,
    "is_raining": false,
    "humidity_percent": 22
  },
  {
    "location": "Sydney",
    "temperature_celsius": 7,
    "is_raining": false,
    "humidity_percent": 17
  },
  {
    "isbn": "97836555",
    "pages": 274,
    "in_stock": false
  },
  {
    "type": "protein",
    "name": "Salmon",
    "calories_per_100g": 292,
    "is_organic": true
  },
  {
    "location": "London",
    "temperature_celsius": 18,
    "is_raining": false,
    "humidity_percent": 56
  },
  {
    "type": "fruit",
    "name": "Banana",
    "calories_per_100g": 416,
    "is_organic": false
  },
  {
    "location": "New York",
    "temperature_celsius": 23,
    "is_raining": true,
    "humidity_percent": 17
  },
  {
    "country": "Australia",
    "name": "Federative Republic of Brazil",
    "flag_colours": "Green, yellow and blue",
    "population_millions": 234
  },
  {
    "country": "Brazil",
    "name": "Federative Republic of Brazil",
    "flag_colours": "Red and white",
    "population_millions": 162
  },
  {
    "type": "protein",
    "name": "Banana",
    "calories_per_100g": 396,
    "is_organic": true
  },
  {
    "location": "New York",
    "temperature_celsius": -2,
    "is_raining": false,
    "humidity_percent": 39
  },
  {
    "id": 4339,
    "address": "180 Oak Road",
    "postal_code": "Z72 8T"
  },
  {
    "location": "Sydney",
    "temperature_celsius": 12,
    "is_raining": true,
    "humidity_percent": 64
  },
  {
    "location": "New York",
    "temperature_celsius": 8,
    "is_raining": false,
    "humidity_percent": 89
  },
  {
    "id": 2901,
    "address": "19 River View",
    "postal_code": "B60 6F"
  },
  {
    "type": "grain",
    "name": "Quinoa",
    "calories_per_100g": 318,
    "is_organic": true
  },
  {
    "id": 3767,
    "address": "146 Oak Road",
    "postal_code": "Z06 1A"
  },
  {
    "country": "Canada",
    "name": "Federative Republic of Brazil",
    "flag_colours": "Red, white and blue",
    "population_millions": 246
  },
  {
    "location": "Paris",
    "temperature_celsius": 26,
    "is_raining": false,
    "humidity_percent": 22
  },
  {
    "type": "vegetable",
    "name": "Chicken",
    "calories_per_100g": 205,
    "is_organic": true
  },
  {
    "id": 10244,
    "address": "32 River View",
    "postal_code": "G35 8N"
  },
  {
    "location": "Sydney",
    "temperature_celsius": -5,
    "is_raining": true,
    "humidity_percent": 12
  },
  {
    "isbn": "97886927",
    "pages": 490,
    "in_stock": true
  },
  {
    "id": 1595,
    "address": "165 River View",
    "postal_code": "Q35 4B"
  },
  {
    "id": 8079,
    "address": "144 Maple Lane",
    "postal_code": "B42 3Q"
  },
  {
    "id": 1520,
    "address": "111 Oak Road",
    "postal_code": "V14 0F"
  },
  {
    "country": "UK",
    "name": "United States of America",
    "flag_colours": "Red, white and blue",
    "population_millions": 295
  },
  {
    "country": "UK",
    "name": "Great Britain",
    "flag_colours": "Red and white",
    "population_millions": 151
  },
  {
    "type": "vegetable",
    "name": "Rice",
    "calories_per_100g": 132,
    "is_organic": true
  },
  {
    "id": 3665,
    "address": "193 Maple Lane",
    "postal_code": "D71 4D"
  },
  {
    "location": "New York",
    "temperature_celsius": 22,
    "is_raining": false,
    "humidity_percent": 83
  },
  {
    "type": "vegetable",
    "name": "Carrot",
    "calories_per_100g": 58,
    "is_organic": false
  },
  {
    "type": "protein",
    "name": "Quinoa",
    "calories_per_100g": 305,
    "is_organic": true
  },
  {
    "country": "Canada",
    "name": "Canada",
    "flag_colours": "Blue, white and red",
    "population_millions": 309
  },
  {
    "isbn": "97855541",
    "pages": 374,
    "in_stock": false
  },
  {
    "location": "Tokyo",
    "temperature_celsius": 27,
    "is_raining": true,
    "humidity_percent": 10
  },
  {
    "id": 9233,
    "address": "11 Oak Road",
    "postal_code": "T54 2T"
  },
  {
    "isbn": "97834218",
    "pages": 284,
    "in_stock": false
  },
  {
    "type": "fruit",
    "name": "Banana",
    "calories_per_100g": 306,
    "is_organic": true
  },
  {
    "isbn": "97819262",
    "pages": 290,
    "in_stock": true
  },
  {
    "id": 7626,
    "address": "100 Oak Road",
    "postal_code": "Q62 2M"
  },
  {
    "country": "Australia",
    "name": "Commonwealth of Australia",
    "flag_colours": "Red and white",
    "population_millions": 29
  },
  {
    "location": "Paris",
    "temperature_celsius": 25,
    "is_raining": true,
    "humidity_percent": 12
  },
  {
    "country": "USA",
    "name": "Commonwealth of Australia",
    "flag_colours": "Red and white",
    "population_millions": 162
  },
  {
    "id": 4623,
    "address": "16 Oak Road",
    "postal_code": "D58 6B"
  },
  {
    "country": "Brazil",
    "name": "Commonwealth of Australia",
    "flag_colours": "Red, white and blue",
    "population_millions": 75
  },
  {
    "isbn": "97812595",
    "pages": 242,
    "in_stock": false
  },
  {
    "isbn": "97872381",
    "pages": 793,
    "in_stock": true
  },
  {
    "isbn": "97861099",
    "pages": 494,
    "in_stock": true
  },
  {
    "id": 5433,
    "address": "22 Maple Lane",
    "postal_code": "O47 1Q"
  },
  {
    "type": "protein",
    "name": "Broccoli",
    "calories_per_100g": 87,
    "is_organic": false
  },
  {
    "id": 7004,
    "address": "158 Main Street",
    "postal_code": "M46 1K"
  },
  {
    "id": 9936,
    "address": "55 Main Street",
    "postal_code": "Y18 5U"
  },
  {
    "country": "Australia",
    "name": "Commonwealth of Australia",
    "flag_colours": "Red and white",
    "population_millions": 83
  },
  {
    "isbn": "97876002",
    "pages": 741,
    "in_stock": false
  },
  {
    "type": "fruit",
    "name": "Quinoa",
    "calories_per_100g": 89,
    "is_organic": true
  },
  {
    "isbn": "97845565",
    "pages": 322,
    "in_stock": true
  },
  {
    "type": "grain",
    "name": "Salmon",
    "calories_per_100g": 71,
    "is_organic": true
  },
  {
    "id": 7022,
    "address": "21 Maple Lane",
    "postal_code": "Z27 4J"
  },
  {
    "id": 10114,
    "address": "26 Park Avenue",
    "postal_code": "W62 4I"
  },
  {
    "location": "New York",
    "temperature_celsius": 6,
    "is_raining": false,
    "humidity_percent": 18
  },
  {
    "type": "vegetable",
    "name": "Apple",
    "calories_per_100g": 418,
    "is_organic": false
  },
  {
    "country": "UK",
    "name": "Commonwealth of Australia",
    "flag_colours": "White and red",
    "population_millions": 246
  },
  {
    "isbn": "97821779",
    "pages": 275,
    "in_stock": false
  },
  {
    "country": "Brazil",
    "name": "Canada",
    "flag_colours": "Red and white",
    "population_millions": 22
  },
  {
    "location": "Paris",
    "temperature_celsius": 12,
    "is_raining": true,
    "humidity_percent": 67
  },
  {
    "isbn": "97838504",
    "pages": 292,
    "in_stock": true
  },
  {
    "country": "USA",
    "name": "Japan",
    "flag_colours": "Red, white and blue",
    "population_millions": 168
  },
  {
    "isbn": "97815918",
    "pages": 581,
    "in_stock": true
  },
  {
    "isbn": "97888548",
    "pages": 627,
    "in_stock": true
  },
  {
    "location": "New York",
    "temperature_celsius": 17,
    "is_raining": false,
    "humidity_percent": 33
  },
  {
    "id": 10365,
    "address": "145 Park Avenue",
    "postal_code": "L71 7N"
  },
  {
    "isbn": "97828944",
    "pages": 547,
    "in_stock": true
  },
  {
    "location": "Paris",
    "temperature_celsius": 23,
    "is_raining": false,
    "humidity_percent": 25
  },
  {
    "id": 10396,
    "address": "150 Oak Road",
    "postal_code": "D13 4D"
  },
  {
    "id": 7974,
    "address": "194 Maple Lane",
    "postal_code": "Z66 4T"
  },
  {
    "country": "Australia",
    "name": "Canada",
    "flag_colours": "Red, white and blue",
    "population_millions": 364
  },
  {
    "type": "vegetable",
    "name": "Banana",
    "calories_per_100g": 398,
    "is_organic": true
  },
  {
    "country": "Canada",
    "name": "Federative Republic of Brazil",
    "flag_colours": "Green, yellow and blue",
    "population_millions": 71
  },
  {
    "type": "protein",
    "name": "Rice",
    "calories_per_100g": 234,
    "is_organic": true
  },
  {
    "country": "UK",
    "name": "United States of America",
    "flag_colours": "Blue, white and red",
    "population_millions": 34
  },
  {
    "isbn": "97816727",
    "pages": 309,
    "in_stock": true
  },
  {
    "country": "Canada",
    "name": "Japan",
    "flag_colours": "Green, yellow and blue",
    "population_millions": 68
  },
  {
    "type": "fruit",
    "name": "Rice",
    "calories_per_100g": 107,
    "is_organic": false
  },
  {
    "type": "fruit",
    "name": "Salmon",
    "calories_per_100g": 193,
    "is_organic": true
  },
  {
    "isbn": "97848677",
    "pages": 106,
    "in_stock": true
  },
  {
    "id": 5148,
    "address": "149 River View",
    "postal_code": "V50 7Z"
  },
  {
    "type": "grain",
    "name": "Apple",
    "calories_per_100g": 217,
    "is_organic": false
  },
  {
    "isbn": "97816799",
    "pages": 623,
    "in_stock": true
  }
]